{
  "objects": [
    {
      "name": "Берлин",
      "latitude": 52.52,
      "longitude": 13.405,
      "category": "capital"
    },
    {
      "name": "Берлин",
      "latitude": 52.52,
      "longitude": 13.405,
      "category": "capital"
    },
    {
      "name": "Рим",
      "latitude": 41.9028,
      "longitude": 12.4964,
      "category": "capital"
    },
    {
      "name": "Париж",
      "latitude": 48.8566,
      "longitude": 2.3522,
      "category": "capital"
    },
    {
      "name": "Токио",
      "latitude": 35.6895,
      "longitude": 139.6917,
      "category": "capital"
    },
    {
      "name": "Токио",
      "latitude": 35.6895,
      "longitude": 139.6917,
      "category": "capital"
    },
    {
      "name": "Токио",
      "latitude": 35.6895,
      "longitude": 139.6917,
      "category": "capital"
    },
    {
      "name": "Оттава",
      "latitude": 45.4215,
      "longitude": -75.6972,
      "category": "capital"
    },
    {
      "name": "Пекин",
      "latitude": 39.9042,
      "longitude": 116.4074,
      "category": "capital"
    },
    {
      "name": "Пекин",
      "latitude": 39.9042,
      "longitude": 116.4074,
      "category": "capital"
    },
    {
      "name": "Мадрид",
      "latitude": 40.4168,
      "longitude": -3.7038,
      "category": "capital"
    },
    {
      "name": "Оттава",
      "latitude": 45.4215,
      "longitude": -75.6972,
      "category": "capital"
    },
    {
      "name": "Мадрид",
      "latitude": 40.4168,
      "longitude": -3.7038,
      "category": "capital"
    },
    {
      "name": "Париж",
      "latitude": 48.8566,
      "longitude": 2.3522,
      "category": "capital"
    },
    {
      "name": "Пекин",
      "latitude": 39.9042,
      "longitude": 116.4074,
      "category": "capital"
    },
    {
      "name": "Пекин",
      "latitude": 39.9042,
      "longitude": 116.4074,
      "category": "capital"
    },
    {
      "name": "Пекин",
      "latitude": 39.9042,
      "longitude": 116.4074,
      "category": "capital"
    },
    {
      "name": "Москва",
      "latitude": 55.7558,
      "longitude": 37.6173,
      "category": "capital"
    },
    {
      "name": "Лондон",
      "latitude": 51.5074,
      "longitude": -0.1278,
      "category": "capital"
    },
    {
      "name": "Мадрид",
      "latitude": 40.4168,
      "longitude": -3.7038,
      "category": "capital"
    },
    {
      "name": "Москва",
      "latitude": 55.7558,
      "longitude": 37.6173,
      "category": "capital"
    },
    {
      "name": "Токио",
      "latitude": 35.6895,
      "longitude": 139.6917,
      "category": "capital"
    },
    {
      "name": "Рим",
      "latitude": 41.9028,
      "longitude": 12.4964,
      "category": "capital"
    },
    {
      "name": "Мадрид",
      "latitude": 40.4168,
      "longitude": -3.7038,
      "category": "capital"
    },
    {
      "name": "Мадрид",
      "latitude": 40.4168,
      "longitude": -3.7038,
      "category": "capital"
    },
    {
      "name": "Афинский Акрополь",
      "latitude": 37.9715,
      "longitude": 23.7267,
      "category": "landmark"
    },
    {
      "name": "Тадж-Махал",
      "latitude": 27.1751,
      "longitude": 78.0421,
      "category": "landmark"
    },
    {
      "name": "Эйфелева башня",
      "latitude": 48.8584,
      "longitude": 2.2945,
      "category": "landmark"
    },
    {
      "name": "Статуя Свободы",
      "latitude": 40.6892,
      "longitude": -74.0445,
      "category": "landmark"
    },
    {
      "name": "Бурдж-Халифа",
      "latitude": 25.1972,
      "longitude": 55.2744,
      "category": "landmark"
    },
    {
      "name": "Статуя Свободы",
      "latitude": 40.6892,
      "longitude": -74.0445,
      "category": "landmark"
    },
    {
      "name": "Петра",
      "latitude": 30.3285,
      "longitude": 35.4444,
      "category": "landmark"
    },
    {
      "name": "Эйфелева башня",
      "latitude": 48.8584,
      "longitude": 2.2945,
      "category": "landmark"
    },
    {
      "name": "Эйфелева башня",
      "latitude": 48.8584,
      "longitude": 2.2945,
      "category": "landmark"
    },
    {
      "name": "Мачу-Пикчу",
      "latitude": -13.1631,
      "longitude": -72.545,
      "category": "landmark"
    },
    {
      "name": "Тадж-Махал",
      "latitude": 27.1751,
      "longitude": 78.0421,
      "category": "landmark"
    },
    {
      "name": "Афинский Акрополь",
      "latitude": 37.9715,
      "longitude": 23.7267,
      "category": "landmark"
    },
    {
      "name": "Эйфелева башня",
      "latitude": 48.8584,
      "longitude": 2.2945,
      "category": "landmark"
    },
    {
      "name": "Тадж-Махал",
      "latitude": 27.1751,
      "longitude": 78.0421,
      "category": "landmark"
    },
    {
      "name": "Колизей",
      "latitude": 41.8902,
      "longitude": 12.4922,
      "category": "landmark"
    },
    {
      "name": "Бурдж-Халифа",
      "latitude": 25.1972,
      "longitude": 55.2744,
      "category": "landmark"
    },
    {
      "name": "Тадж-Махал",
      "latitude": 27.1751,
      "longitude": 78.0421,
      "category": "landmark"
    },
    {
      "name": "Афинский Акрополь",
      "latitude": 37.9715,
      "longitude": 23.7267,
      "category": "landmark"
    },
    {
      "name": "Статуя Свободы",
      "latitude": 40.6892,
      "longitude": -74.0445,
      "category": "landmark"
    },
    {
      "name": "Бурдж-Халифа",
      "latitude": 25.1972,
      "longitude": 55.2744,
      "category": "landmark"
    },
    {
      "name": "Тадж-Махал",
      "latitude": 27.1751,
      "longitude": 78.0421,
      "category": "landmark"
    },
    {
      "name": "Биг-Бен",
      "latitude": 51.5007,
      "longitude": -0.1246,
      "category": "landmark"
    },
    {
      "name": "Колизей",
      "latitude": 41.8902,
      "longitude": 12.4922,
      "category": "landmark"
    },
    {
      "name": "Храм Василия Блаженного",
      "latitude": 55.7525,
      "longitude": 37.6231,
      "category": "landmark"
    },
    {
      "name": "Колизей",
      "latitude": 41.8902,
      "longitude": 12.4922,
      "category": "landmark"
    },
    {
      "name": "Аконкагуа",
      "latitude": -32.6532,
      "longitude": -70.0109,
      "category": "mountain"
    },
    {
      "name": "Маунт-Рейнир",
      "latitude": 46.8523,
      "longitude": -121.7603,
      "category": "mountain"
    },
    {
      "name": "Килиманджаро",
      "latitude": -3.0674,
      "longitude": 37.3556,
      "category": "mountain"
    },
    {
      "name": "Альпамайо",
      "latitude": -8.8557,
      "longitude": -77.6309,
      "category": "mountain"
    },
    {
      "name": "Денали",
      "latitude": 63.0695,
      "longitude": -151.0074,
      "category": "mountain"
    },
    {
      "name": "Эльбрус",
      "latitude": 43.3499,
      "longitude": 42.4453,
      "category": "mountain"
    },
    {
      "name": "Монблан",
      "latitude": 45.8326,
      "longitude": 6.8652,
      "category": "mountain"
    },
    {
      "name": "Килиманджаро",
      "latitude": -3.0674,
      "longitude": 37.3556,
      "category": "mountain"
    },
    {
      "name": "Монблан",
      "latitude": 45.8326,
      "longitude": 6.8652,
      "category": "mountain"
    },
    {
      "name": "Эверест",
      "latitude": 27.9881,
      "longitude": 86.925,
      "category": "mountain"
    },
    {
      "name": "Эверест",
      "latitude": 27.9881,
      "longitude": 86.925,
      "category": "mountain"
    },
    {
      "name": "Эльбрус",
      "latitude": 43.3499,
      "longitude": 42.4453,
      "category": "mountain"
    },
    {
      "name": "Аконкагуа",
      "latitude": -32.6532,
      "longitude": -70.0109,
      "category": "mountain"
    },
    {
      "name": "Эльбрус",
      "latitude": 43.3499,
      "longitude": 42.4453,
      "category": "mountain"
    },
    {
      "name": "Эльбрус",
      "latitude": 43.3499,
      "longitude": 42.4453,
      "category": "mountain"
    },
    {
      "name": "Эльбрус",
      "latitude": 43.3499,
      "longitude": 42.4453,
      "category": "mountain"
    },
    {
      "name": "Монблан",
      "latitude": 45.8326,
      "longitude": 6.8652,
      "category": "mountain"
    },
    {
      "name": "Аконкагуа",
      "latitude": -32.6532,
      "longitude": -70.0109,
      "category": "mountain"
    },
    {
      "name": "Аконкагуа",
      "latitude": -32.6532,
      "longitude": -70.0109,
      "category": "mountain"
    },
    {
      "name": "Маунт-Рейнир",
      "latitude": 46.8523,
      "longitude": -121.7603,
      "category": "mountain"
    },
    {
      "name": "Эверест",
      "latitude": 27.9881,
      "longitude": 86.925,
      "category": "mountain"
    },
    {
      "name": "Аннапурна",
      "latitude": 28.5961,
      "longitude": 83.8203,
      "category": "mountain"
    },
    {
      "name": "Килиманджаро",
      "latitude": -3.0674,
      "longitude": 37.3556,
      "category": "mountain"
    },
    {
      "name": "Маунт-Рейнир",
      "latitude": 46.8523,
      "longitude": -121.7603,
      "category": "mountain"
    },
    {
      "name": "Эверест",
      "latitude": 27.9881,
      "longitude": 86.925,
      "category": "mountain"
    },
    {
      "name": "Титикака",
      "latitude": -15.7655,
      "longitude": -69.3226,
      "category": "lake"
    },
    {
      "name": "Онтарио",
      "latitude": 44.0,
      "longitude": -77.5,
      "category": "lake"
    },
    {
      "name": "Гурон",
      "latitude": 45.0,
      "longitude": -82.5,
      "category": "lake"
    },
    {
      "name": "Виктория",
      "latitude": -1.0,
      "longitude": 33.0,
      "category": "lake"
    },
    {
      "name": "Эйр",
      "latitude": -28.3,
      "longitude": 137.5,
      "category": "lake"
    },
    {
      "name": "Балхаш",
      "latitude": 46.5,
      "longitude": 74.5,
      "category": "lake"
    },
    {
      "name": "Эйр",
      "latitude": -28.3,
      "longitude": 137.5,
      "category": "lake"
    },
    {
      "name": "Байкал",
      "latitude": 53.5587,
      "longitude": 108.165,
      "category": "lake"
    },
    {
      "name": "Гурон",
      "latitude": 45.0,
      "longitude": -82.5,
      "category": "lake"
    },
    {
      "name": "Супериор",
      "latitude": 47.7,
      "longitude": -87.5,
      "category": "lake"
    },
    {
      "name": "Гурон",
      "latitude": 45.0,
      "longitude": -82.5,
      "category": "lake"
    },
    {
      "name": "Чад",
      "latitude": 13.0,
      "longitude": 14.0,
      "category": "lake"
    },
    {
      "name": "Онтарио",
      "latitude": 44.0,
      "longitude": -77.5,
      "category": "lake"
    },
    {
      "name": "Титикака",
      "latitude": -15.7655,
      "longitude": -69.3226,
      "category": "lake"
    },
    {
      "name": "Байкал",
      "latitude": 53.5587,
      "longitude": 108.165,
      "category": "lake"
    },
    {
      "name": "Виктория",
      "latitude": -1.0,
      "longitude": 33.0,
      "category": "lake"
    },
    {
      "name": "Эйр",
      "latitude": -28.3,
      "longitude": 137.5,
      "category": "lake"
    },
    {
      "name": "Мичиган",
      "latitude": 44.0,
      "longitude": -87.0,
      "category": "lake"
    },
    {
      "name": "Онтарио",
      "latitude": 44.0,
      "longitude": -77.5,
      "category": "lake"
    },
    {
      "name": "Чад",
      "latitude": 13.0,
      "longitude": 14.0,
      "category": "lake"
    },
    {
      "name": "Байкал",
      "latitude": 53.5587,
      "longitude": 108.165,
      "category": "lake"
    },
    {
      "name": "Эйр",
      "latitude": -28.3,
      "longitude": 137.5,
      "category": "lake"
    },
    {
      "name": "Виктория",
      "latitude": -1.0,
      "longitude": 33.0,
      "category": "lake"
    },
    {
      "name": "Виктория",
      "latitude": -1.0,
      "longitude": 33.0,
      "category": "lake"
    },
    {
      "name": "Виктория",
      "latitude": -1.0,
      "longitude": 33.0,
      "category": "lake"
    }
  ]
}